[
    {
      "number": 637,
      "title": "Report 637: Campers' encounter just after dark in the Wrangell - St. Elias National Park and Preserve",
      "classification": "Class A",
      "timestamp": "2000-06-16T12:00:00Z",
      "latitude": 61.5,
      "longitude": -142.9
    },
    {
      "number": 2917,
      "title": "Report 2917: Family observes large biped from car",
      "classification": "Class A",
      "timestamp": "1995-05-15T12:00:00Z",
      "latitude": 55.1872,
      "longitude": -132.7982
    },
    {
      "number": 7963,
      "title": "Report 7963: Sasquatch walks past window of house at night",
      "classification": "Class A",
      "timestamp": "2004-02-09T12:00:00Z",
      "latitude": 55.2035,
      "longitude": -132.8202
    },
    {
      "number": 9317,
      "title": "Report 9317: Driver on Alcan Highway has noon, road encounter near Alaska-Canada border",
      "classification": "Class A",
      "timestamp": "2004-06-18T12:00:00Z",
      "latitude": 62.9375,
      "longitude": -141.5667
    },
    {
      "number": 13038,
      "title": "Report 13038: Snowmobiler has encounter in deep snow near Potter, AK",
      "classification": "Class A",
      "timestamp": "2004-02-15T12:00:00Z",
      "latitude": 61.0595,
      "longitude": -149.7853
    },
    {
      "number": 23666,
      "title": "Report 23666: Passenger on the Alcan Highway sees a tall bipedal creature walk across the road",
      "classification": "Class A",
      "timestamp": "2008-04-23T12:00:00Z",
      "latitude": 62.77335,
      "longitude": -141.3165
    },
    {
      "number": 26604,
      "title": "Report 26604: Daytime sighting of reddish-colored bigfoot near Fairbanks",
      "classification": "Class A",
      "timestamp": "2009-07-15T12:00:00Z",
      "latitude": 64.89139,
      "longitude": -147.8142
    },
    {
      "number": 179,
      "title": "Report 179: Man and witnesses have two seperate sighting, 1st while fishing, 2nd while driving",
      "classification": "Class A",
      "timestamp": "1981-09-15T12:00:00Z",
      "latitude": 32.31435,
      "longitude": -85.16235
    },
    {
      "number": 245,
      "title": "Report 245: Two outdoorsman fishing, loud vocalizations, footsteps heard",
      "classification": "Class A",
      "timestamp": "1999-07-15T12:00:00Z",
      "latitude": 33.28375,
      "longitude": -87.32655
    },
    {
      "number": 416,
      "title": "Report 416: A resident's early evening sighting next to his home near New Market",
      "classification": "Class A",
      "timestamp": "1983-11-15T12:00:00Z",
      "latitude": 34.95605,
      "longitude": -86.4559
    },
    {
      "number": 435,
      "title": "Report 435: Daylight sighting by husband and wife near home near Valhermosa Springs",
      "classification": "Class A",
      "timestamp": "2000-10-10T12:00:00Z",
      "latitude": 34.5422,
      "longitude": -86.66465
    },
    {
      "number": 451,
      "title": "Report 451: Young man has sighting near home",
      "classification": "Class A",
      "timestamp": "1993-08-20T12:00:00Z",
      "latitude": 34.9263,
      "longitude": -87.02025
    },
    {
      "number": 577,
      "title": "Report 577: Man has repeated visits at family farm",
      "classification": "Class A",
      "timestamp": "1999-11-15T12:00:00Z",
      "latitude": 34.80405,
      "longitude": -87.50905
    },
    {
      "number": 799,
      "title": "Report 799: Person fishing recounts story of his encounter with a large, bipedal creature that was wading in the water",
      "classification": "Class A",
      "timestamp": "1978-04-15T12:00:00Z",
      "latitude": 34.92855,
      "longitude": -87.1105
    },
    {
      "number": 832,
      "title": "Report 832: Witnesses spot a tall, brown object moving on a hill, also reported are moans and a sighting where red eyes are described",
      "classification": "Class A",
      "timestamp": "1980-11-15T12:00:00Z",
      "latitude": 33.13195,
      "longitude": -88.17885
    },
    {
      "number": 961,
      "title": "Report 961: Motorist confronted by hairy, man-like creature on roadside",
      "classification": "Class A",
      "timestamp": "1997-01-06T12:00:00Z",
      "latitude": 31.4515,
      "longitude": -88.08305
    },
    {
      "number": 1022,
      "title": "Report 1022: Hunters observe creature walking in the woods",
      "classification": "Class A",
      "timestamp": "1990-09-15T12:00:00Z",
      "latitude": 33.97575,
      "longitude": -87.45876
    },
    {
      "number": 1907,
      "title": "Report 1907: Motorist sees Bigfoot like creature, hears scream",
      "classification": "Class A",
      "timestamp": "1996-12-05T12:00:00Z",
      "latitude": 31.58255,
      "longitude": -87.96095
    },
    {
      "number": 3028,
      "title": "Report 3028: Daylight sighting by lady while her husband was clearing trees",
      "classification": "Class A",
      "timestamp": "2000-06-01T12:00:00Z",
      "latitude": 34.4881,
      "longitude": -86.6333
    },
    {
      "number": 3296,
      "title": "Report 3296: Man on his way to work  sees sasquatch crossing road in his headlights",
      "classification": "Class A",
      "timestamp": "2001-10-15T12:00:00Z",
      "latitude": 34.6802,
      "longitude": -87.00665
    },
    {
      "number": 4743,
      "title": "Report 4743: Nighttime sighting by two teens in southern Conecuh County",
      "classification": "Class A",
      "timestamp": "2000-02-10T12:00:00Z",
      "latitude": 31.16,
      "longitude": -87.09069
    },
    {
      "number": 5954,
      "title": "Report 5954: Daylight sighting at eastern dike of East Lagoon in Aliceville",
      "classification": "Class A",
      "timestamp": "2007-09-01T12:00:00Z",
      "latitude": 33.13,
      "longitude": -88.14999
    },
    {
      "number": 6938,
      "title": "Report 6938: Tracks and feces found in freshly turned field",
      "classification": "Class A",
      "timestamp": "2003-08-30T12:00:00Z",
      "latitude": 33.21145,
      "longitude": -87.35664
    },
    {
      "number": 7031,
      "title": "Report 7031: Lady sees large hairy creature on the side of the road",
      "classification": "Class A",
      "timestamp": "2003-06-28T12:00:00Z",
      "latitude": 33.26035,
      "longitude": -87.31821
    },
    {
      "number": 7235,
      "title": "Report 7235: Recollection of an afternoon sighting on Green Mountain",
      "classification": "Class A",
      "timestamp": "2004-05-28T12:00:00Z",
      "latitude": 34.7325,
      "longitude": -86.52105
    },
    {
      "number": 7427,
      "title": "Report 7427: Four youths have harrowing experience in Alabama backwoods.",
      "classification": "Class A",
      "timestamp": "2003-11-26T12:00:00Z",
      "latitude": 32.6218,
      "longitude": -85.4258
    },
    {
      "number": 8171,
      "title": "Report 8171: Nighttime Sighting on County Road",
      "classification": "Class A",
      "timestamp": "2004-05-09T12:00:00Z",
      "latitude": 33.3674,
      "longitude": -86.64066
    },
    {
      "number": 8679,
      "title": "Report 8679: Adult recalls childhood sighting at dusk near Moody",
      "classification": "Class A",
      "timestamp": "2004-09-30T12:00:00Z",
      "latitude": 33.6205,
      "longitude": -86.4664
    },
    {
      "number": 10498,
      "title": "Report 10498: Hiker has daylight sighting near Warrior.",
      "classification": "Class A",
      "timestamp": "1979-09-15T12:00:00Z",
      "latitude": 33.8132,
      "longitude": -86.7891
    },
    {
      "number": 14082,
      "title": "Report 14082: Daylight road crossing sighting near Orrville",
      "classification": "Class A",
      "timestamp": "2006-09-10T12:00:00Z",
      "latitude": 32.30673,
      "longitude": -87.24547
    },
    {
      "number": 15102,
      "title": "Report 15102: Daylight sighting by hunter near the Alabama / Mississippi border",
      "classification": "Class A",
      "timestamp": "2006-07-06T12:00:00Z",
      "latitude": 31.00002,
      "longitude": -86.99782
    },
    {
      "number": 17455,
      "title": "Report 17455: Sighting by duck hunters in swamp area within Tuskegee National Forest",
      "classification": "Class A",
      "timestamp": "2007-05-19T12:00:00Z",
      "latitude": 32.43,
      "longitude": -85.705
    },
    {
      "number": 17480,
      "title": "Report 17480: Sighting by a group of campers in Cheaha Mountain State Park",
      "classification": "Class A",
      "timestamp": "2007-04-22T12:00:00Z",
      "latitude": 33.35,
      "longitude": -85.625
    },
    {
      "number": 18043,
      "title": "Report 18043: Evening sighting by family driving by Guntersville Lake",
      "classification": "Class A",
      "timestamp": "1992-08-15T12:00:00Z",
      "latitude": 34.27607,
      "longitude": -86.17524
    },
    {
      "number": 22539,
      "title": "Report 22539: Roadside Sighting near Moody",
      "classification": "Class A",
      "timestamp": "2007-07-18T12:00:00Z",
      "latitude": 33.59,
      "longitude": -86.5
    },
    {
      "number": 24646,
      "title": "Report 24646: Early morning sighting by a fisherman south of Montgomery",
      "classification": "Class A",
      "timestamp": "2001-04-13T12:00:00Z",
      "latitude": 32.184,
      "longitude": -86.581
    },
    {
      "number": 25238,
      "title": "Report 25238: Woman recalls encountering a creature while driving through Talladega National Forest",
      "classification": "Class A",
      "timestamp": "1999-11-23T12:00:00Z",
      "latitude": 33.36305,
      "longitude": -86.17122
    },
    {
      "number": 25559,
      "title": "Report 25559: Exec on business trip has sighting from balcony of hotel near Huntsville",
      "classification": "Class A",
      "timestamp": "2009-02-24T12:00:00Z",
      "latitude": 34.71139,
      "longitude": -86.6575
    },
    {
      "number": 26513,
      "title": "Report 26513: Man recalls a sighting after Hurricane Frederic north of Mobile",
      "classification": "Class A",
      "timestamp": "1979-09-14T12:00:00Z",
      "latitude": 30.7113,
      "longitude": -87.91833
    },
    {
      "number": 26886,
      "title": "Report 26886: Daylight sighting while riding ATV on his private property outside Verbena",
      "classification": "Class A",
      "timestamp": "2000-05-13T12:00:00Z",
      "latitude": 32.76967,
      "longitude": -86.4891
    },
    {
      "number": 27067,
      "title": "Report 27067: Motorists pulled over on a rural highway at night describe standoff in headlights east of Clayton",
      "classification": "Class A",
      "timestamp": "1980-01-12T12:00:00Z",
      "latitude": 31.86801,
      "longitude": -85.35995
    },
    {
      "number": 27459,
      "title": "Report 27459: Motorist sights dirty-white upright creature near the town of Kansas",
      "classification": "Class A",
      "timestamp": "2010-03-12T12:00:00Z",
      "latitude": 33.8957,
      "longitude": -87.53395
    },
    {
      "number": 27480,
      "title": "Report 27480: Woman recounts childhood sighting of a white creature near the town of Kansas",
      "classification": "Class A",
      "timestamp": "1990-05-15T12:00:00Z",
      "latitude": 33.8957,
      "longitude": -87.53395
    },
    {
      "number": 27568,
      "title": "Report 27568: Daylight sighting of a Bigfoot outside Muscle Shoals",
      "classification": "Class A",
      "timestamp": "2005-01-12T12:00:00Z",
      "latitude": 34.70112,
      "longitude": -87.77686
    },
    {
      "number": 33307,
      "title": "Report 33307: Memory told of a close encounter while riding a bike as a teen in Brewton",
      "classification": "Class A",
      "timestamp": "1983-10-14T12:00:00Z",
      "latitude": 31.13586,
      "longitude": -87.06486
    },
    {
      "number": 35293,
      "title": "Report 35293: Daylight observation remembered of a Bigfoot holding a baby pig near Andalusia",
      "classification": "Class A",
      "timestamp": "1978-10-10T12:00:00Z",
      "latitude": 31.34781,
      "longitude": -86.54527
    },
    {
      "number": 35475,
      "title": "Report 35475: Daylight road crossing near Vernon",
      "classification": "Class A",
      "timestamp": "2012-05-21T12:00:00Z",
      "latitude": 33.41574,
      "longitude": -88.12475
    },
    {
      "number": 37038,
      "title": "Report 37038: Nighttime sighting of a tall blonde biped crossing Hwy. 45 north of Fruitdale",
      "classification": "Class A",
      "timestamp": "2008-02-15T12:00:00Z",
      "latitude": 31.25385,
      "longitude": -88.26291
    },
    {
      "number": 37094,
      "title": "Report 37094: Multiple sightings close to Lookout Mountain near Gadsden",
      "classification": "Class A",
      "timestamp": "2012-11-01T12:00:00Z",
      "latitude": 33.82162,
      "longitude": -85.48985
    },
    {
      "number": 39383,
      "title": "Report 39383: Kayaker has rocks thrown and observes the culprit near Union Grove",
      "classification": "Class A",
      "timestamp": "2012-08-15T12:00:00Z",
      "latitude": 34.32279,
      "longitude": -86.5045
    },
    {
      "number": 40417,
      "title": "Report 40417: Nighttime encounters close to home near Morgan",
      "classification": "Class A",
      "timestamp": "2013-03-16T12:00:00Z",
      "latitude": 34.47091,
      "longitude": -86.56954
    },
    {
      "number": 40912,
      "title": "Report 40912: Deer hunter hears then sees large hair-covered biped near the Morgan County line",
      "classification": "Class A",
      "timestamp": "2013-01-23T12:00:00Z",
      "latitude": 34.29511,
      "longitude": -86.88621
    },
    {
      "number": 42939,
      "title": "Report 42939: Late afternoon sighting by a bow hunter in his tree stand south of Clanton",
      "classification": "Class A",
      "timestamp": "2013-10-15T12:00:00Z",
      "latitude": 32.48322,
      "longitude": -86.37698
    },
    {
      "number": 43689,
      "title": "Report 43689: Night fisherman first hears and then observes two Bigfoots in his spotlight near Birmingham",
      "classification": "Class A",
      "timestamp": "2013-10-02T12:00:00Z",
      "latitude": 33.55153,
      "longitude": -86.98473
    },
    {
      "number": 44487,
      "title": "Report 44487: Memory told of a close dalylight observation outside Alexander City",
      "classification": "Class A",
      "timestamp": "2014-03-30T12:00:00Z",
      "latitude": 32.91874,
      "longitude": -85.9793
    },
    {
      "number": 44849,
      "title": "Report 44849: Sightings at night in the same area off Bone Camp Road near Northport",
      "classification": "Class A",
      "timestamp": "2014-12-27T12:00:00Z",
      "latitude": 33.37095,
      "longitude": -87.6942
    },
    {
      "number": 44986,
      "title": "Report 44986: Memory told of a close up daylight encounter with two, possibly young, Bigfoots near Abbeville",
      "classification": "Class A",
      "timestamp": "2014-12-31T12:00:00Z",
      "latitude": 31.651,
      "longitude": -85.19265
    },
    {
      "number": 45296,
      "title": "Report 45296: Motorist observes a Bigfoot chasing a deer at night near Bremen",
      "classification": "Class A",
      "timestamp": "2014-06-09T12:00:00Z",
      "latitude": 34.00806,
      "longitude": -86.96416
    },
    {
      "number": 45464,
      "title": "Report 45464: Motorist has a daylight sighting on Hwy. 9 east of Cedar Bluff",
      "classification": "Class A",
      "timestamp": "2014-06-17T12:00:00Z",
      "latitude": 34.14117,
      "longitude": -85.22781
    },
    {
      "number": 46746,
      "title": "Report 46746: Nighttime sighting by a motorist west of Newville",
      "classification": "Class A",
      "timestamp": "2014-09-17T12:00:00Z",
      "latitude": 31.23374,
      "longitude": -85.21574
    },
    {
      "number": 47975,
      "title": "Report 47975: Motorist observes a tall biped with an ape-like face while driving at dusk near Ariton",
      "classification": "Class A",
      "timestamp": "2013-01-28T12:00:00Z",
      "latitude": 31.53475,
      "longitude": -85.7944
    },
    {
      "number": 50178,
      "title": "Report 50178: Recollection of a roadside sighting of a white Bigfoot near Blount Springs",
      "classification": "Class A",
      "timestamp": "2014-01-14T12:00:00Z",
      "latitude": 33.89833,
      "longitude": -86.84557
    },
    {
      "number": 186,
      "title": "Report 186: Two boys are chased by sasquatch",
      "classification": "Class A",
      "timestamp": "2001-08-11T12:00:00Z",
      "latitude": 34.55056,
      "longitude": -92.34083
    },
    {
      "number": 1636,
      "title": "Report 1636: Teenager has sighting near Ozark National Forest",
      "classification": "Class A",
      "timestamp": "1972-11-05T12:00:00Z",
      "latitude": 36.19444,
      "longitude": -92.38222
    },
    {
      "number": 1637,
      "title": "Report 1637: Backyard sighting near Mountain Home.",
      "classification": "Class A",
      "timestamp": "1995-05-15T12:00:00Z",
      "latitude": 36.33528,
      "longitude": -92.385
    },
    {
      "number": 1640,
      "title": "Report 1640: Nightime sighting by motorists on Hwy 7 North",
      "classification": "Class A",
      "timestamp": "1996-10-15T12:00:00Z",
      "latitude": 34.08,
      "longitude": -93
    },
    {
      "number": 1641,
      "title": "Report 1641: From top of hill, hunter observes bipedal creature following a fence row",
      "classification": "Class A",
      "timestamp": "1998-10-29T12:00:00Z",
      "latitude": 34.25,
      "longitude": -93.1
    },
    {
      "number": 1944,
      "title": "Report 1944: Family has multiple encounters with white bigfoot creature",
      "classification": "Class A",
      "timestamp": "1969-08-16T12:00:00Z",
      "latitude": 33.76986,
      "longitude": -94.3643
    },
    {
      "number": 2494,
      "title": "Report 2494: Bus driver encounters ape like creature during an unscheduled stop",
      "classification": "Class A",
      "timestamp": "2001-08-11T12:00:00Z",
      "latitude": 34.787,
      "longitude": -91.735
    },
    {
      "number": 2774,
      "title": "Report 2774: Large bipedal animal observes couple parking behind school gymnasium",
      "classification": "Class A",
      "timestamp": "1988-01-10T12:00:00Z",
      "latitude": 36.12083,
      "longitude": -90.51056
    },
    {
      "number": 2931,
      "title": "Report 2931: Daylight sighting outside rural home in small community of Herbine, south of Rison",
      "classification": "Class A",
      "timestamp": "2001-07-29T12:00:00Z",
      "latitude": 33.82111,
      "longitude": -92.03389
    },
    {
      "number": 2957,
      "title": "Report 2957: Youths riding in back of pick-up have close observation of large biped crossing road",
      "classification": "Class A",
      "timestamp": "1970-06-15T12:00:00Z",
      "latitude": 35.9975,
      "longitude": -93.83426
    },
    {
      "number": 3226,
      "title": "Report 3226: Man finds 3-toed prints & wife has sighting",
      "classification": "Class A",
      "timestamp": "1998-11-15T12:00:00Z",
      "latitude": 35.42097,
      "longitude": -93.15208
    },
    {
      "number": 3519,
      "title": "Report 3519: Man working in wooded area sees bipedal animal standing on railroad tracks",
      "classification": "Class A",
      "timestamp": "1984-04-17T12:00:00Z",
      "latitude": 33.88861,
      "longitude": -93.20389
    },
    {
      "number": 4090,
      "title": "Report 4090: Sighting in wheat field near Fouke",
      "classification": "Class A",
      "timestamp": "2000-01-15T12:00:00Z",
      "latitude": 33.26666,
      "longitude": -93.886
    },
    {
      "number": 4093,
      "title": "Report 4093: Daytime sighting between Pocahontas and Imboden",
      "classification": "Class A",
      "timestamp": "1977-09-25T12:00:00Z",
      "latitude": 36.19791,
      "longitude": -91.1125
    },
    {
      "number": 4094,
      "title": "Report 4094: Late night encounter near Benton",
      "classification": "Class A",
      "timestamp": "1994-10-15T12:00:00Z",
      "latitude": 34.56444,
      "longitude": -92.58667
    },
    {
      "number": 5228,
      "title": "Report 5228: Motorist has nighttime sighting of bipedal animal at roadside",
      "classification": "Class A",
      "timestamp": "1997-03-14T12:00:00Z",
      "latitude": 36.37111,
      "longitude": -91.87
    },
    {
      "number": 5316,
      "title": "Report 5316: Daytime sighting by hiker near Spring Creek.",
      "classification": "Class A",
      "timestamp": "2002-10-10T12:00:00Z",
      "latitude": 36.20611,
      "longitude": -94.23417
    },
    {
      "number": 5607,
      "title": "Report 5607: Driver narrowly misses creature darting across mountainous stretch of highway",
      "classification": "Class A",
      "timestamp": "1998-07-07T12:00:00Z",
      "latitude": 34.70694,
      "longitude": -94.45417
    },
    {
      "number": 6178,
      "title": "Report 6178: Motorist crossing a bridge sees sasquatch digging in the dirt below",
      "classification": "Class A",
      "timestamp": "2004-04-04T12:00:00Z",
      "latitude": 36.18333,
      "longitude": -94.44694
    },
    {
      "number": 6932,
      "title": "Report 6932: Duck hunter observes apelike creature across White River",
      "classification": "Class A",
      "timestamp": "1999-11-15T12:00:00Z",
      "latitude": 35.64861,
      "longitude": -91.45889
    },
    {
      "number": 7045,
      "title": "Report 7045: Man riding 4-wheeler observes a bigfoot reaching into a tree",
      "classification": "Class A",
      "timestamp": "2003-10-31T12:00:00Z",
      "latitude": 36.34167,
      "longitude": -93.94583
    },
    {
      "number": 7234,
      "title": "Report 7234: Daylight sighting by two sisters near their farm in the early 1960s",
      "classification": "Class A",
      "timestamp": "1961-10-15T12:00:00Z",
      "latitude": 34.88111,
      "longitude": -91.08056
    },
    {
      "number": 7815,
      "title": "Report 7815: Man while checking spooked cattle with his grandfather observes 8'-9' bipedal animal leaning against tree",
      "classification": "Class A",
      "timestamp": "2003-08-12T12:00:00Z",
      "latitude": 35.27833,
      "longitude": -93.13361
    },
    {
      "number": 7971,
      "title": "Report 7971: Coon hunter and dogs experience close encounter in Sulphur River bottoms between Doddridge and Fouke.",
      "classification": "Class A",
      "timestamp": "2004-02-19T12:00:00Z",
      "latitude": 33.18639,
      "longitude": -93.9475
    },
    {
      "number": 8420,
      "title": "Report 8420: Early morning motorist driving to work sees bipedal animal running through field",
      "classification": "Class A",
      "timestamp": "2004-04-03T12:00:00Z",
      "latitude": 34.53167,
      "longitude": -92.40778
    },
    {
      "number": 8527,
      "title": "Report 8527: Man has extraordinary, close encounter while fishing near Huntington",
      "classification": "Class A",
      "timestamp": "2004-04-23T12:00:00Z",
      "latitude": 35.09306,
      "longitude": -94.356
    },
    {
      "number": 8913,
      "title": "Report 8913: Late night sighting by motorist",
      "classification": "Class A",
      "timestamp": "2001-05-15T12:00:00Z",
      "latitude": 33.7985,
      "longitude": -91.27056
    },
    {
      "number": 9507,
      "title": "Report 9507: Roadside sighting near Eureka Springs",
      "classification": "Class A",
      "timestamp": "1994-07-16T12:00:00Z",
      "latitude": 36.41,
      "longitude": -93.74
    },
    {
      "number": 9753,
      "title": "Report 9753: Animal peers into youngster's bedroom window",
      "classification": "Class A",
      "timestamp": "1986-07-15T12:00:00Z",
      "latitude": 35.44944,
      "longitude": -91.51306
    },
    {
      "number": 10913,
      "title": "Report 10913: Squirrel Hunter has encounter south of El Dorado",
      "classification": "Class A",
      "timestamp": "2002-11-05T12:00:00Z",
      "latitude": 33.14663,
      "longitude": -92.61493
    },
    {
      "number": 10919,
      "title": "Report 10919: Youth has sighting from his backyard on Air Force Base",
      "classification": "Class A",
      "timestamp": "1975-09-15T12:00:00Z",
      "latitude": 34.87,
      "longitude": -92.12
    },
    {
      "number": 11430,
      "title": "Report 11430: Two young men have a sighting while spelunking near Huntsville.",
      "classification": "Class A",
      "timestamp": "1981-07-15T12:00:00Z",
      "latitude": 36.31519,
      "longitude": -93.75723
    },
    {
      "number": 11632,
      "title": "Report 11632: 4' - 5.5' upright animal seen crossing dead-end road.",
      "classification": "Class A",
      "timestamp": "2005-05-07T12:00:00Z",
      "latitude": 33.26462,
      "longitude": -92.64066
    },
    {
      "number": 13211,
      "title": "Report 13211: Early morning sighting by resident along Highway 7 near Bismarck.",
      "classification": "Class A",
      "timestamp": "2005-12-04T12:00:00Z",
      "latitude": 34.285,
      "longitude": -93.162
    },
    {
      "number": 13718,
      "title": "Report 13718: Man tells of two-legged animal crossing road in front of his car east of Paris",
      "classification": "Class A",
      "timestamp": "1986-06-01T12:00:00Z",
      "latitude": 35.34572,
      "longitude": -93.75313
    },
    {
      "number": 13983,
      "title": "Report 13983: Possible sighting by fisherman at Blue Lake.",
      "classification": "Class A",
      "timestamp": "1980-06-15T12:00:00Z",
      "latitude": 35.0194,
      "longitude": -90.32
    },
    {
      "number": 16696,
      "title": "Report 16696: Dusk sighting and vocalizations around property near Cove",
      "classification": "Class A",
      "timestamp": "2004-10-15T12:00:00Z",
      "latitude": 34.369,
      "longitude": -94.3745
    },
    {
      "number": 24254,
      "title": "Report 24254: Woman remembers she and a male friend watching an upright creature walking on the edge of moonlit Lake Hamilton",
      "classification": "Class A",
      "timestamp": "1992-06-14T12:00:00Z",
      "latitude": 34.44652,
      "longitude": -93.07654
    },
    {
      "number": 26100,
      "title": "Report 26100: Truck driver sees a tall red eyed creature south of Fouke near the Sulphur River",
      "classification": "Class A",
      "timestamp": "1996-11-15T12:00:00Z",
      "latitude": 33.14759,
      "longitude": -93.89135
    },
    {
      "number": 27482,
      "title": "Report 27482: Man recalls incident while camping as a teenager near Cedarville",
      "classification": "Class A",
      "timestamp": "2010-03-23T12:00:00Z",
      "latitude": 35.36335,
      "longitude": -94.229
    },
    {
      "number": 27948,
      "title": "Report 27948: Motorist has nighttime sighting on a mountain road north of Flippin",
      "classification": "Class A",
      "timestamp": "2004-01-14T12:00:00Z",
      "latitude": 36.29871,
      "longitude": -92.63179
    },
    {
      "number": 29417,
      "title": "Report 29417: Deer hunter has a late afternoon sighting through his rifle scope in the Winona Wildlife Management Area",
      "classification": "Class A",
      "timestamp": "2010-11-18T12:00:00Z",
      "latitude": 34.73147,
      "longitude": -92.75093
    },
    {
      "number": 36178,
      "title": "Report 36178: Motorist has nighttime sighting near Lake Village",
      "classification": "Class A",
      "timestamp": "2012-07-29T12:00:00Z",
      "latitude": 33.26855,
      "longitude": -91.22115
    },
    {
      "number": 36498,
      "title": "Report 36498: Pre-dawn sighting on a rural road near Fouke",
      "classification": "Class A",
      "timestamp": "2012-09-13T12:00:00Z",
      "latitude": 33.33171,
      "longitude": -93.98622
    },
    {
      "number": 38015,
      "title": "Report 38015: Motorist observes three bigfoots crossing before him at night east of Harrison",
      "classification": "Class A",
      "timestamp": "2012-12-04T12:00:00Z",
      "latitude": 36.14065,
      "longitude": -92.52505
    },
    {
      "number": 40020,
      "title": "Report 40020: Man has a close daytime encounter with a probable Bigfoot family outside Hardy",
      "classification": "Class A",
      "timestamp": "2008-01-15T12:00:00Z",
      "latitude": 36.33205,
      "longitude": -91.52025
    },
    {
      "number": 40101,
      "title": "Report 40101: Motorist views large bipedal animal squatting at night beside I-40 near Marche.",
      "classification": "Class A",
      "timestamp": "2012-12-07T12:00:00Z",
      "latitude": 34.86535,
      "longitude": -92.3575
    },
    {
      "number": 41827,
      "title": "Report 41827: Motorist has close encounter on Mallard Point Road near Lake Norfork",
      "classification": "Class A",
      "timestamp": "2009-02-15T12:00:00Z",
      "latitude": 36.38605,
      "longitude": -92.30614
    },
    {
      "number": 46380,
      "title": "Report 46380: Mother & daughter have unusual, close-up encounter on the road at night near Newark",
      "classification": "Class A",
      "timestamp": "2011-11-24T12:00:00Z",
      "latitude": 35.703,
      "longitude": -91.46231
    },
    {
      "number": 50541,
      "title": "Report 50541: Motorist has a close sighting at dusk on AR-258 outside Bald Knob",
      "classification": "Class A",
      "timestamp": "2015-12-28T12:00:00Z",
      "latitude": 35.34737,
      "longitude": -91.60007
    },
    {
      "number": 55376,
      "title": "Report 55376: Two fishermen have close-up sighting while driving home at night from Norfork Lake",
      "classification": "Class A",
      "timestamp": "2003-12-15T12:00:00Z",
      "latitude": 36.37399,
      "longitude": -92.27071
    },
    {
      "number": 55410,
      "title": "Report 55410: Deer hunter encounters several Bigfoots, possibly a family unit, near Searcy",
      "classification": "Class A",
      "timestamp": "2015-11-26T12:00:00Z",
      "latitude": 35.255,
      "longitude": -91.50301
    },
    {
      "number": 56108,
      "title": "Report 56108: Sighting at dusk by a Retired Police Officer with Anthropology Degree",
      "classification": "Class A",
      "timestamp": "2016-12-02T12:00:00Z",
      "latitude": 34.4125,
      "longitude": -94.1125
    },
    {
      "number": 56735,
      "title": "Report 56735: Motorist has daytime sighting while driving past Joseph T. Robinson military base",
      "classification": "Class A",
      "timestamp": "2017-02-10T12:00:00Z",
      "latitude": 34.85324,
      "longitude": -92.25454
    },
    {
      "number": 57471,
      "title": "Report 57471: Memory told of a close daylight encounter with a white Bigfoot while riding a motorcycle inside Camp Joseph T. Robinson",
      "classification": "Class A",
      "timestamp": "1976-09-15T12:00:00Z",
      "latitude": 34.92336,
      "longitude": -92.30519
    },
    {
      "number": 440,
      "title": "Report 440: A daylight sighting report by an ex soldier",
      "classification": "Class A",
      "timestamp": "2000-10-10T12:00:00Z",
      "latitude": 31.99003,
      "longitude": -110.1835
    },
    {
      "number": 3482,
      "title": "Report 3482: Nighttime sighting by motorists on Hwy 87 in Jacks Canyon, 30 miles south of Winslow",
      "classification": "Class A",
      "timestamp": "2000-12-24T12:00:00Z",
      "latitude": 34.90831,
      "longitude": -110.8403
    },
    {
      "number": 6552,
      "title": "Report 6552: Bigfoot crosses road in front of vehicle traveling on Navajo Route 7 near Canyon De Chelley National Monument",
      "classification": "Class A",
      "timestamp": "2001-06-17T12:00:00Z",
      "latitude": 36.09081,
      "longitude": -109.4276
    },
    {
      "number": 7495,
      "title": "Report 7495: Night time road crossing near Strawberry, Arizona",
      "classification": "Class A",
      "timestamp": "1983-12-30T12:00:00Z",
      "latitude": 34.4,
      "longitude": -111.5
    },
    {
      "number": 7566,
      "title": "Report 7566: Bow hunter has daylight sighting near Alpine.",
      "classification": "Class A",
      "timestamp": "1993-09-04T12:00:00Z",
      "latitude": 33.6247,
      "longitude": -109.3191
    },
    {
      "number": 8685,
      "title": "Report 8685: Morning sighting in the Lukachukai Mountains of northeast Arizona",
      "classification": "Class A",
      "timestamp": "1981-11-07T12:00:00Z",
      "latitude": 36.54165,
      "longitude": -109.29
    },
    {
      "number": 11514,
      "title": "Report 11514: Evening sighting by motorists north of Flagstaff.",
      "classification": "Class A",
      "timestamp": "1990-07-01T12:00:00Z",
      "latitude": 35.656,
      "longitude": -111.938
    },
    {
      "number": 16580,
      "title": "Report 16580: Afternoon road-crossing sighting by motorist on RT 61 near Concho",
      "classification": "Class A",
      "timestamp": "2006-10-26T12:00:00Z",
      "latitude": 34.325,
      "longitude": -109.64
    },
    {
      "number": 17448,
      "title": "Report 17448: A close range road crossing on a foggy morning near Safford",
      "classification": "Class A",
      "timestamp": "2007-01-22T12:00:00Z",
      "latitude": 32.815,
      "longitude": -109.675
    },
    {
      "number": 17804,
      "title": "Report 17804: Late afternoon road crossing sighting by motorist west of Springerville.",
      "classification": "Class A",
      "timestamp": "2007-02-01T12:00:00Z",
      "latitude": 34.6,
      "longitude": -109.44
    },
    {
      "number": 18723,
      "title": "Report 18723: Late night multi-witness, road-crossing sighting near Bartlett Lake.",
      "classification": "Class A",
      "timestamp": "1995-07-15T12:00:00Z",
      "latitude": 33.85,
      "longitude": -111.69
    },
    {
      "number": 19339,
      "title": "Report 19339: Late afternoon road crossing near Cibecue (Fort Apache Reservation)",
      "classification": "Class A",
      "timestamp": "2006-10-15T12:00:00Z",
      "latitude": 33.99989,
      "longitude": -110.4298
    },
    {
      "number": 23136,
      "title": "Report 23136: Early morning roadside sighting of tall gray creature near Buckeye",
      "classification": "Class A",
      "timestamp": "2008-07-29T12:00:00Z",
      "latitude": 33.3785,
      "longitude": -112.6432
    },
    {
      "number": 23358,
      "title": "Report 23358: Late night road side sighting near Tonto Creek",
      "classification": "Class A",
      "timestamp": "2006-11-17T12:00:00Z",
      "latitude": 34.28939,
      "longitude": -111.1367
    },
    {
      "number": 24405,
      "title": "Report 24405: Man tells of his scary encounter while traveling Route 66 in a snow storm",
      "classification": "Class A",
      "timestamp": "1973-12-20T12:00:00Z",
      "latitude": 35.241,
      "longitude": -111.8634
    },
    {
      "number": 27495,
      "title": "Report 27495: Afternoon sighting by a commuter south of Show Low",
      "classification": "Class A",
      "timestamp": "2010-03-24T12:00:00Z",
      "latitude": 34.1,
      "longitude": -110.165
    },
    {
      "number": 28946,
      "title": "Report 28946: Army Vet recalls daylight sighting near Prescott",
      "classification": "Class A",
      "timestamp": "1981-08-15T12:00:00Z",
      "latitude": 34.55154,
      "longitude": -112.5421
    },
    {
      "number": 29358,
      "title": "Report 29358: Brief daylight sighting within the city limits of Show Low",
      "classification": "Class A",
      "timestamp": "2011-05-31T12:00:00Z",
      "latitude": 34,
      "longitude": -110
    },
    {
      "number": 42364,
      "title": "Report 42364: Memory told of a daylight sighting and parallel chase in the Gila River bottoms while riding horseback",
      "classification": "Class A",
      "timestamp": "1992-08-15T12:00:00Z",
      "latitude": 32.95,
      "longitude": -112.73
    },
    {
      "number": 47536,
      "title": "Report 47536: Evening sighting from a fishing boat on Fools Hollow Lake near Show Low.",
      "classification": "Class A",
      "timestamp": "2014-04-22T12:00:00Z",
      "latitude": 34.285,
      "longitude": -110.11
    },
    {
      "number": 83,
      "title": "Report 83: Early dawn sighting by hunters near Bass Lake",
      "classification": "Class A",
      "timestamp": "1988-10-01T12:00:00Z",
      "latitude": 37.35944,
      "longitude": -119.6436
    },
    {
      "number": 147,
      "title": "Report 147: Sound reports from resident in South Lake Tahoe",
      "classification": "Class A",
      "timestamp": "2000-06-15T12:00:00Z",
      "latitude": 38.93333,
      "longitude": -119.9833
    },
    {
      "number": 353,
      "title": "Report 353: Night sighting by two motorists near Lake Tahoe",
      "classification": "Class A",
      "timestamp": "2000-09-23T12:00:00Z",
      "latitude": 38.9575,
      "longitude": -120.0914
    },
    {
      "number": 528,
      "title": "Report 528: Three children have daytime sighting near Eureka",
      "classification": "Class A",
      "timestamp": "1957-06-01T12:00:00Z",
      "latitude": 40.80222,
      "longitude": -124.1625
    },
    {
      "number": 615,
      "title": "Report 615: Sighting by woman in Eagle Meadow, above Strawberry",
      "classification": "Class A",
      "timestamp": "1997-11-15T12:00:00Z",
      "latitude": 38.28085,
      "longitude": -119.836
    },
    {
      "number": 849,
      "title": "Report 849: Girl has daytime sighting near Payne's Creek",
      "classification": "Class A",
      "timestamp": "1968-11-01T12:00:00Z",
      "latitude": 40.33556,
      "longitude": -121.9139
    },
    {
      "number": 865,
      "title": "Report 865: Two 4-wheelers have night sighting above Huntington Lake",
      "classification": "Class A",
      "timestamp": "1997-12-18T12:00:00Z",
      "latitude": 37.23389,
      "longitude": -119.2119
    },
    {
      "number": 868,
      "title": "Report 868: Campers have sighting above Pinecrest",
      "classification": "Class A",
      "timestamp": "1994-06-01T12:00:00Z",
      "latitude": 38.17677,
      "longitude": -119.9065
    },
    {
      "number": 875,
      "title": "Report 875: Man has sighting near Alturas",
      "classification": "Class A",
      "timestamp": "1974-06-01T12:00:00Z",
      "latitude": 41.41,
      "longitude": -120.6781
    },
    {
      "number": 913,
      "title": "Report 913: Hikers see creature in Desolation Wilderness",
      "classification": "Class A",
      "timestamp": "2000-07-01T12:00:00Z",
      "latitude": 38.93,
      "longitude": -120.205
    },
    {
      "number": 919,
      "title": "Report 919: Car passenger has nighttime sighting near Lake Tahoe",
      "classification": "Class A",
      "timestamp": "1996-04-10T12:00:00Z",
      "latitude": 38.93333,
      "longitude": -119.9833
    },
    {
      "number": 1055,
      "title": "Report 1055: Two hikers have morning sighting in the Desolation Wilderness",
      "classification": "Class A",
      "timestamp": "1993-04-01T12:00:00Z",
      "latitude": 38.86,
      "longitude": -120.1358
    },
    {
      "number": 1068,
      "title": "Report 1068: Two fisherman have daytime sighting above Huntington Lake",
      "classification": "Class A",
      "timestamp": "1995-10-29T12:00:00Z",
      "latitude": 37.35861,
      "longitude": -118.9975
    },
    {
      "number": 1090,
      "title": "Report 1090: Girl has daytime sighting near Twain Harte",
      "classification": "Class A",
      "timestamp": "1978-08-01T12:00:00Z",
      "latitude": 38.06615,
      "longitude": -120.1877
    },
    {
      "number": 1229,
      "title": "Report 1229: Boy Scout has late night sighting above Porterville",
      "classification": "Class A",
      "timestamp": "1955-08-01T12:00:00Z",
      "latitude": 36.10222,
      "longitude": -118.8489
    },
    {
      "number": 1301,
      "title": "Report 1301: Three witnesses have daytime sighting near Strawberry",
      "classification": "Class A",
      "timestamp": "1978-07-30T12:00:00Z",
      "latitude": 38.19753,
      "longitude": -119.9811
    },
    {
      "number": 1391,
      "title": "Report 1391: Man has late night sighting north of Redding",
      "classification": "Class A",
      "timestamp": "1999-03-04T12:00:00Z",
      "latitude": 41.45833,
      "longitude": -122.4306
    },
    {
      "number": 1473,
      "title": "Report 1473: Family has early evening sighting near Weed",
      "classification": "Class A",
      "timestamp": "1966-09-01T12:00:00Z",
      "latitude": 41.42806,
      "longitude": -122.3839
    },
    {
      "number": 1510,
      "title": "Report 1510: Brothers have early evening sighting near Lee Vining",
      "classification": "Class A",
      "timestamp": "1977-07-01T12:00:00Z",
      "latitude": 38.04806,
      "longitude": -119.2642
    },
    {
      "number": 1653,
      "title": "Report 1653: Husband and wife have late night sighting on Highway 299",
      "classification": "Class A",
      "timestamp": "1978-10-01T12:00:00Z",
      "latitude": 40.63556,
      "longitude": -122.7325
    },
    {
      "number": 1919,
      "title": "Report 1919: Friends have night sighting above Sonora",
      "classification": "Class A",
      "timestamp": "1983-10-25T12:00:00Z",
      "latitude": 38.03898,
      "longitude": -120.2339
    },
    {
      "number": 2794,
      "title": "Report 2794: Woman has early evening sighting near Kennedy Meadows",
      "classification": "Class A",
      "timestamp": "1987-05-31T12:00:00Z",
      "latitude": 36.05278,
      "longitude": -118.1303
    },
    {
      "number": 2886,
      "title": "Report 2886: A Wildlife Biologist observes a large upright walking animal near Pinecrest",
      "classification": "Class A",
      "timestamp": "1993-06-15T12:00:00Z",
      "latitude": 38.26661,
      "longitude": -119.8633
    },
    {
      "number": 2896,
      "title": "Report 2896: Sister and brother see 3 creatures near Yreka",
      "classification": "Class A",
      "timestamp": "1944-08-01T12:00:00Z",
      "latitude": 41.82417,
      "longitude": -122.9958
    },
    {
      "number": 2928,
      "title": "Report 2928: Eighteen campers find hut; videotape distressed bigfoot walking down mountain ridge",
      "classification": "Class A",
      "timestamp": "2000-07-20T12:00:00Z",
      "latitude": 41.3657,
      "longitude": -123.1317
    },
    {
      "number": 3169,
      "title": "Report 3169: Man sees creature crossing road near Petaluma",
      "classification": "Class A",
      "timestamp": "1991-01-01T12:00:00Z",
      "latitude": 38.25583,
      "longitude": -122.5833
    },
    {
      "number": 3421,
      "title": "Report 3421: Family has unusual experience outside Grass Valley",
      "classification": "Class A",
      "timestamp": "1978-06-01T12:00:00Z",
      "latitude": 39.21278,
      "longitude": -120.8908
    },
    {
      "number": 3672,
      "title": "Report 3672: Late night sighting by motorists travelling through Tioga Pass (Yosemite), a few miles beyond Crane Flat Campground",
      "classification": "Class A",
      "timestamp": "1998-08-01T12:00:00Z",
      "latitude": 37.91111,
      "longitude": -119.2569
    },
    {
      "number": 4446,
      "title": "Report 4446: Daytime sighting by hiker on La Jolla Indian Reservation.",
      "classification": "Class A",
      "timestamp": "1993-07-04T12:00:00Z",
      "latitude": 33.2675,
      "longitude": -116.8625
    },
    {
      "number": 4630,
      "title": "Report 4630: Afternoon sighting by hiker outside Dunsmuir",
      "classification": "Class A",
      "timestamp": "2001-06-15T12:00:00Z",
      "latitude": 41.21361,
      "longitude": -122.2703
    },
    {
      "number": 4946,
      "title": "Report 4946: Teenager has daytime sighting near Truckee",
      "classification": "Class A",
      "timestamp": "1956-10-01T12:00:00Z",
      "latitude": 39.3225,
      "longitude": -120.2653
    },
    {
      "number": 6429,
      "title": "Report 6429: Woman recalls a nighttime sighting on Hwy. 299 near Burney",
      "classification": "Class A",
      "timestamp": "1994-09-15T12:00:00Z",
      "latitude": 40.92911,
      "longitude": -121.6156
    },
    {
      "number": 6521,
      "title": "Report 6521: Woman hears late night scream and has close encounter near Laytonville",
      "classification": "Class A",
      "timestamp": "1987-06-01T12:00:00Z",
      "latitude": 39.68833,
      "longitude": -123.4817
    },
    {
      "number": 6639,
      "title": "Report 6639: Couple have night sighting near Lake Tahoe",
      "classification": "Class A",
      "timestamp": "2003-07-20T12:00:00Z",
      "latitude": 38.85556,
      "longitude": -120.0133
    },
    {
      "number": 6746,
      "title": "Report 6746: Man has sighting after massive landslide on Highway 50",
      "classification": "Class A",
      "timestamp": "1983-01-01T12:00:00Z",
      "latitude": 38.93333,
      "longitude": -119.9833
    },
    {
      "number": 6961,
      "title": "Report 6961: Teen has daytime sighting near Myers Flat",
      "classification": "Class A",
      "timestamp": "1963-08-01T12:00:00Z",
      "latitude": 40.26639,
      "longitude": -123.8692
    },
    {
      "number": 6963,
      "title": "Report 6963: Teens have unusual experience near Myers Flat",
      "classification": "Class A",
      "timestamp": "1965-07-01T12:00:00Z",
      "latitude": 40.26639,
      "longitude": -123.8692
    },
    {
      "number": 7334,
      "title": "Report 7334: Daytime sightings by Forest Service employee near Arroyo Seco",
      "classification": "Class A",
      "timestamp": "1993-04-01T12:00:00Z",
      "latitude": 36.2485,
      "longitude": -121.495
    },
    {
      "number": 7555,
      "title": "Report 7555: Two Young Fishermen Have Mid-day Encounter at Lake Shasta",
      "classification": "Class A",
      "timestamp": "1977-08-01T12:00:00Z",
      "latitude": 40.8875,
      "longitude": -122.3775
    },
    {
      "number": 7731,
      "title": "Report 7731: Hunting Partners Have Early Morning Roadway Sighting",
      "classification": "Class A",
      "timestamp": "1973-10-15T12:00:00Z",
      "latitude": 39.92778,
      "longitude": -122.1781
    },
    {
      "number": 7804,
      "title": "Report 7804: Family has two late night sightings near Nevada City",
      "classification": "Class A",
      "timestamp": "2004-01-04T12:00:00Z",
      "latitude": 39.26361,
      "longitude": -121.0161
    },
    {
      "number": 7860,
      "title": "Report 7860: Hunter has daytime sighting near Dos Rios",
      "classification": "Class A",
      "timestamp": "1974-09-01T12:00:00Z",
      "latitude": 39.68833,
      "longitude": -123.4817
    },
    {
      "number": 8059,
      "title": "Report 8059: Teenagers have sighting of two creatures near Albion",
      "classification": "Class A",
      "timestamp": "1966-09-01T12:00:00Z",
      "latitude": 39.22361,
      "longitude": -123.7675
    },
    {
      "number": 8487,
      "title": "Report 8487: Hiking boy has close encounter in High Sierra",
      "classification": "Class A",
      "timestamp": "1972-09-15T12:00:00Z",
      "latitude": 37.5703,
      "longitude": -118.972
    },
    {
      "number": 8595,
      "title": "Report 8595: Man has early morning sighting near Sly Park",
      "classification": "Class A",
      "timestamp": "2003-09-01T12:00:00Z",
      "latitude": 38.72139,
      "longitude": -120.5836
    },
    {
      "number": 9202,
      "title": "Report 9202: Man remembers childhood daytime sighting along the Feather River",
      "classification": "Class A",
      "timestamp": "1965-07-01T12:00:00Z",
      "latitude": 39.205,
      "longitude": -121.58
    },
    {
      "number": 9283,
      "title": "Report 9283: Early morning sighting by motorist along the Eel River",
      "classification": "Class A",
      "timestamp": "1992-07-12T12:00:00Z",
      "latitude": 40.465,
      "longitude": -124
    },
    {
      "number": 9296,
      "title": "Report 9296: Hunter has daytime sighting near Huntington Lake",
      "classification": "Class A",
      "timestamp": "2001-10-25T12:00:00Z",
      "latitude": 37.23389,
      "longitude": -119.2119
    },
    {
      "number": 9357,
      "title": "Report 9357: Workers have daytime sighting on Tule River Indian Reservation",
      "classification": "Class A",
      "timestamp": "2000-05-01T12:00:00Z",
      "latitude": 36.0438,
      "longitude": -118.7402
    },
    {
      "number": 9555,
      "title": "Report 9555: Retired Law Enforcement Officer Has Daytime Sighting",
      "classification": "Class A",
      "timestamp": "2004-08-16T12:00:00Z",
      "latitude": 39.31917,
      "longitude": -120.3275
    },
    {
      "number": 10980,
      "title": "Report 10980: Man has late night sighting near Twain Harte",
      "classification": "Class A",
      "timestamp": "2003-12-24T12:00:00Z",
      "latitude": 38.0312,
      "longitude": -120.2434
    },
    {
      "number": 11162,
      "title": "Report 11162: Family has sightings and encounters in Santa Cruz mountains",
      "classification": "Class A",
      "timestamp": "2004-10-01T12:00:00Z",
      "latitude": 37,
      "longitude": -121.7
    },
    {
      "number": 11496,
      "title": "Report 11496: Lady has two Northern California sightings, over a 20year period.",
      "classification": "Class A",
      "timestamp": "1997-07-15T12:00:00Z",
      "latitude": 40.75,
      "longitude": -122.1667
    },
    {
      "number": 11576,
      "title": "Report 11576: Woman has close up night sighting in car lights on Highway 299",
      "classification": "Class A",
      "timestamp": "1988-10-15T12:00:00Z",
      "latitude": 40.85,
      "longitude": -123.55
    },
    {
      "number": 11656,
      "title": "Report 11656: Couple Has Early Evening Encounter Near Stumpy Meadow Reservoir",
      "classification": "Class A",
      "timestamp": "2004-11-01T12:00:00Z",
      "latitude": 38.90333,
      "longitude": -120.6033
    },
    {
      "number": 11897,
      "title": "Report 11897: Three young adults encounter large aggressive biped while fishing the San Joaquin River",
      "classification": "Class A",
      "timestamp": "1991-06-28T12:00:00Z",
      "latitude": 36.7818,
      "longitude": -120.201
    },
    {
      "number": 11986,
      "title": "Report 11986: Daylight sighting by guide and two tourists at Lake Shasta Caverns",
      "classification": "Class A",
      "timestamp": "2001-03-15T12:00:00Z",
      "latitude": 40.7974,
      "longitude": -122.278
    },
    {
      "number": 12247,
      "title": "Report 12247: Two teenage girls have daytime encounter on Big Sur Coast",
      "classification": "Class A",
      "timestamp": "1974-04-15T12:00:00Z",
      "latitude": 35.5565,
      "longitude": -121.2919
    },
    {
      "number": 12292,
      "title": "Report 12292: Daylight sighting by hikers in Ventana Wilderness",
      "classification": "Class A",
      "timestamp": "1986-06-15T12:00:00Z",
      "latitude": 36.3779,
      "longitude": -121.7146
    },
    {
      "number": 12294,
      "title": "Report 12294: Daylight sighting near Happy Camp",
      "classification": "Class A",
      "timestamp": "1967-03-10T12:00:00Z",
      "latitude": 41.75,
      "longitude": -123.35
    },
    {
      "number": 12383,
      "title": "Report 12383: Hiking family has daytime encounter in Sierra",
      "classification": "Class A",
      "timestamp": "2005-08-21T12:00:00Z",
      "latitude": 38.3068,
      "longitude": -119.5483
    },
    {
      "number": 12649,
      "title": "Report 12649: Man recalls daytime sighting in a canyon outside Nevada City",
      "classification": "Class A",
      "timestamp": "1987-09-15T12:00:00Z",
      "latitude": 39.25396,
      "longitude": -121.0517
    },
    {
      "number": 12917,
      "title": "Report 12917: Vehicle passenger's daylight sighting near Hiouchi",
      "classification": "Class A",
      "timestamp": "1979-10-25T12:00:00Z",
      "latitude": 41.65,
      "longitude": -123.85
    },
    {
      "number": 13419,
      "title": "Report 13419: Firefighter describes multiple-witness sighting during the Loma Fire",
      "classification": "Class A",
      "timestamp": "2003-09-15T12:00:00Z",
      "latitude": 40.7485,
      "longitude": -123.2718
    },
    {
      "number": 13424,
      "title": "Report 13424: Trail bike rider describes being briefly chased at night near Happy Camp",
      "classification": "Class A",
      "timestamp": "1993-12-15T12:00:00Z",
      "latitude": 41.75,
      "longitude": -123.35
    },
    {
      "number": 14338,
      "title": "Report 14338: Old newspaper article (Titusville Morning Herald - Pennsylvania) about sightings near Orestimba Creek in the Diablo (Devil) Mountains",
      "classification": "Class A",
      "timestamp": "1869-11-10T12:00:00Z",
      "latitude": 37.39555,
      "longitude": -121.4871
    },
    {
      "number": 14407,
      "title": "Report 14407: Daylight sighting by camper 7-8 northwest of Independence Lake",
      "classification": "Class A",
      "timestamp": "1993-09-05T12:00:00Z",
      "latitude": 39.50435,
      "longitude": -120.3784
    },
    {
      "number": 14642,
      "title": "Report 14642: Evening road crossing sighting near Lewiston (Hwy 299)",
      "classification": "Class A",
      "timestamp": "1982-08-09T12:00:00Z",
      "latitude": 40.6789,
      "longitude": -122.8055
    },
    {
      "number": 15821,
      "title": "Report 15821: Backpacker's moonlit encounter near the trail from Wright's Lake to Enchanted Pools",
      "classification": "Class A",
      "timestamp": "2005-08-20T12:00:00Z",
      "latitude": 38.86165,
      "longitude": -120.2201
    },
    {
      "number": 15855,
      "title": "Report 15855: Daylight sighting by motorist near Laurel Canyon in the Mammoth Lakes area",
      "classification": "Class A",
      "timestamp": "2006-06-17T12:00:00Z",
      "latitude": 37.58325,
      "longitude": -118.9166
    },
    {
      "number": 16342,
      "title": "Report 16342: Possible sighting by motorist beside Highway 101 between Orick and Trinidad",
      "classification": "Class A",
      "timestamp": "2006-10-21T12:00:00Z",
      "latitude": 41.21385,
      "longitude": -124.0687
    },
    {
      "number": 18298,
      "title": "Report 18298: Man collecting pine nuts retreats from intimidation approach, above French Gulch near Lake Shasta",
      "classification": "Class A",
      "timestamp": "2007-04-18T12:00:00Z",
      "latitude": 40.7333,
      "longitude": -122.6667
    },
    {
      "number": 20197,
      "title": "Report 20197: Nighttime sighting by motorist near Mt. Madonna Park in the Santa Cruz Mountains",
      "classification": "Class A",
      "timestamp": "1980-10-11T12:00:00Z",
      "latitude": 38.4906,
      "longitude": -121.7138
    },
    {
      "number": 21354,
      "title": "Report 21354: Multi-witness road-crossing sighting on Hwy 96 outside Happy Camp",
      "classification": "Class A",
      "timestamp": "2007-09-11T12:00:00Z",
      "latitude": 41.8333,
      "longitude": -123.1668
    },
    {
      "number": 21674,
      "title": "Report 21674: Man describes incident in teen years: Daylight encounter by two young men in the Green Valley area",
      "classification": "Class A",
      "timestamp": "2007-10-10T12:00:00Z",
      "latitude": 34.6167,
      "longitude": -118.4333
    },
    {
      "number": 22434,
      "title": "Report 22434: Backpacker sighting off the PCT in the Marble Mountains Wilderness",
      "classification": "Class A",
      "timestamp": "1998-08-03T12:00:00Z",
      "latitude": 41.28996,
      "longitude": -123.056
    },
    {
      "number": 22500,
      "title": "Report 22500: Paranormal investigator describes encounter near Covelo",
      "classification": "Class A",
      "timestamp": "2007-12-15T12:00:00Z",
      "latitude": 39.83929,
      "longitude": -123.2393
    },
    {
      "number": 23768,
      "title": "Report 23768: Brief, blurry video footage of a possible sasquatch at Mono Lake",
      "classification": "Class A",
      "timestamp": "2008-07-09T12:00:00Z",
      "latitude": 37.9333,
      "longitude": -119
    },
    {
      "number": 24146,
      "title": "Report 24146: Man Has Face to Face Encounter Outside of Willits",
      "classification": "Class A",
      "timestamp": "2008-07-08T12:00:00Z",
      "latitude": 39.51489,
      "longitude": -123.3899
    },
    {
      "number": 24574,
      "title": "Report 24574: Man remembers seeing an animal move through a ravine near Yosemite",
      "classification": "Class A",
      "timestamp": "1993-08-13T12:00:00Z",
      "latitude": 38.33115,
      "longitude": -119.7853
    },
    {
      "number": 24648,
      "title": "Report 24648: Man retells his close, visual encounter at dawn on Pine Mountain as a young deer hunter",
      "classification": "Class A",
      "timestamp": "2008-09-14T12:00:00Z",
      "latitude": 34.625,
      "longitude": -119.2916
    },
    {
      "number": 24936,
      "title": "Report 24936: Sighting off Indian Road behind isolated (at the time) Desert Hot Springs Condo complex",
      "classification": "Class A",
      "timestamp": "2008-12-01T12:00:00Z",
      "latitude": 33.95002,
      "longitude": -116.5333
    },
    {
      "number": 24938,
      "title": "Report 24938: Daylight sighting by backpacker near Pacific Crest Trail west of Independence observes two creatures during the afternoon on the PCT",
      "classification": "Class A",
      "timestamp": "2008-10-27T12:00:00Z",
      "latitude": 36.70835,
      "longitude": -118.375
    },
    {
      "number": 25009,
      "title": "Report 25009: Youngsters encounter large, grey creature in a sugar beet field",
      "classification": "Class A",
      "timestamp": "1962-08-14T12:00:00Z",
      "latitude": 37.475,
      "longitude": -121.07
    },
    {
      "number": 25260,
      "title": "Report 25260: Nighttime sighting (in headlights) by law enforcement officer on patrol near Cloverdale",
      "classification": "Class A",
      "timestamp": "2007-09-08T12:00:00Z",
      "latitude": 38.83996,
      "longitude": -123.0585
    },
    {
      "number": 25266,
      "title": "Report 25266: Two men recall a nighttime face to face encounter on lonely Hwy. 395",
      "classification": "Class A",
      "timestamp": "2009-01-12T12:00:00Z",
      "latitude": 36.79165,
      "longitude": -118.125
    },
    {
      "number": 25444,
      "title": "Report 25444: High school teacher recalls a nighttime sighting while camping in the Los Padres National Forest",
      "classification": "Class A",
      "timestamp": "1982-04-15T12:00:00Z",
      "latitude": 34.73389,
      "longitude": -119.9254
    },
    {
      "number": 26116,
      "title": "Report 26116: Man has close encounter near Oregon border",
      "classification": "Class A",
      "timestamp": "2009-06-03T12:00:00Z",
      "latitude": 41.98645,
      "longitude": -123.1749
    },
    {
      "number": 26258,
      "title": "Report 26258: Nightime sighting by a couple along a main highway between South Lake Tahoe and Placerville",
      "classification": "Class A",
      "timestamp": "2009-07-15T12:00:00Z",
      "latitude": 38.79998,
      "longitude": -120.2083
    },
    {
      "number": 26850,
      "title": "Report 26850: Forestry Worker Observes a Sasquatch in Clear-Cut Near Feather River",
      "classification": "Class A",
      "timestamp": "1993-09-30T12:00:00Z",
      "latitude": 39.705,
      "longitude": -121.18
    },
    {
      "number": 27177,
      "title": "Report 27177: Man remembers sighting while driving on a lonely dark two-lane road near Gorman",
      "classification": "Class A",
      "timestamp": "2010-01-22T12:00:00Z",
      "latitude": 34.76666,
      "longitude": -118.5834
    },
    {
      "number": 27609,
      "title": "Report 27609: Daughter and Mother both observe a large dark creature in the Klamath River bottom",
      "classification": "Class A",
      "timestamp": "2010-04-22T12:00:00Z",
      "latitude": 41.65925,
      "longitude": -123.4498
    },
    {
      "number": 27983,
      "title": "Report 27983: Motorists encounter unusual creature on Highway 46 near Paso Robles, CA",
      "classification": "Class A",
      "timestamp": "1974-08-01T12:00:00Z",
      "latitude": 35.665,
      "longitude": -120.55
    },
    {
      "number": 28432,
      "title": "Report 28432: Motorists have sighting along Highway 88 north of Clements",
      "classification": "Class A",
      "timestamp": "2010-10-25T12:00:00Z",
      "latitude": 38.25,
      "longitude": -121
    },
    {
      "number": 32654,
      "title": "Report 32654: Family has sighting while driving along Hwy 96 near Yreka, CA",
      "classification": "Class A",
      "timestamp": "2011-12-03T12:00:00Z",
      "latitude": 41.845,
      "longitude": -122.575
    },
    {
      "number": 39181,
      "title": "Report 39181: Deer hunter has sighting in Sierra Nevada Mtns south of Markleeville",
      "classification": "Class A",
      "timestamp": "2012-09-23T12:00:00Z",
      "latitude": 38.51665,
      "longitude": -119.6234
    },
    {
      "number": 46330,
      "title": "Report 46330: Daylight sighting by fisherman at Silverwood Lake near Hesperia",
      "classification": "Class A",
      "timestamp": "2014-08-20T12:00:00Z",
      "latitude": 34.28665,
      "longitude": -117.3395
    },
    {
      "number": 48429,
      "title": "Report 48429: Travelers have a nighttime sighting of two hairy bipeds on Hwy. 180 near Grant Grove",
      "classification": "Class A",
      "timestamp": "2015-05-16T12:00:00Z",
      "latitude": 36.77763,
      "longitude": -118.9604
    },
    {
      "number": 211,
      "title": "Report 211: Daylight sighting by a hunter east of Alberta Hwy 22, near Hwy 532",
      "classification": "Class A",
      "timestamp": "1995-11-18T12:00:00Z",
      "latitude": 50.4023,
      "longitude": -114.4419
    },
    {
      "number": 9876,
      "title": "Report 9876: Sighting by hunters south of Longview",
      "classification": "Class A",
      "timestamp": "2003-11-15T12:00:00Z",
      "latitude": 50.0865,
      "longitude": -114.2347
    },
    {
      "number": 10775,
      "title": "Report 10775: Nighttime sighting by motorist at the Saulteaux River",
      "classification": "Class A",
      "timestamp": "1976-02-12T12:00:00Z",
      "latitude": 55.26332,
      "longitude": -114.3957
    },
    {
      "number": 12001,
      "title": "Report 12001: Daylight sighting by motorist outside Edmonton, on Highway 16 near Stony Plain",
      "classification": "Class A",
      "timestamp": "2005-04-15T12:00:00Z",
      "latitude": 53.62819,
      "longitude": -114.1397
    },
    {
      "number": 12647,
      "title": "Report 12647: Sighting by camper at Camp Alexo near Nordegg",
      "classification": "Class A",
      "timestamp": "1998-06-30T12:00:00Z",
      "latitude": 52.51666,
      "longitude": -115.8742
    },
    {
      "number": 17290,
      "title": "Report 17290:  Woman describes close encounter when she was 18 near Peace River",
      "classification": "Class A",
      "timestamp": "2008-01-23T12:00:00Z",
      "latitude": 56.12543,
      "longitude": -117.1638
    },
    {
      "number": 27043,
      "title": "Report 27043: Man recalls disturbing two sleeping creatures lying on a road near Redwater",
      "classification": "Class A",
      "timestamp": "1997-06-05T12:00:00Z",
      "latitude": 53.92005,
      "longitude": -113.0987
    },
    {
      "number": 43598,
      "title": "Report 43598: Early morning sighting through binoculars while bird watching in Waterton National Park",
      "classification": "Class A",
      "timestamp": "2011-06-17T12:00:00Z",
      "latitude": 49.01115,
      "longitude": -114.0243
    },
    {
      "number": 2113,
      "title": "Report 2113: Daylight sighting by motorist on Hwy 93 about 20 miles east of Radium",
      "classification": "Class A",
      "timestamp": "2001-03-30T12:00:00Z",
      "latitude": 50.84333,
      "longitude": -116.0426
    },
    {
      "number": 3899,
      "title": "Report 3899: Camper witnesses animal on two legs climbing up gully east of Hope, south of Hwy 3, near Nicolum Creek",
      "classification": "Class A",
      "timestamp": "1999-09-14T12:00:00Z",
      "latitude": 49.3402,
      "longitude": -121.3177
    },
    {
      "number": 4900,
      "title": "Report 4900: Eight-foot bipedal animal seen crossing road near Tete Jaune Cache",
      "classification": "Class A",
      "timestamp": "2002-08-17T12:00:00Z",
      "latitude": 53.08,
      "longitude": -119.665
    },
    {
      "number": 5172,
      "title": "Report 5172: Multi-witness road-crossing sighting outside Fort St.John",
      "classification": "Class A",
      "timestamp": "1965-10-20T12:00:00Z",
      "latitude": 56.3321,
      "longitude": -121.3324
    },
    {
      "number": 6831,
      "title": "Report 6831: Night time sighting by motorist on Highway 40 between Gold Bridge and Lillooet",
      "classification": "Class A",
      "timestamp": "2002-12-20T12:00:00Z",
      "latitude": 50.80041,
      "longitude": -122.1751
    },
    {
      "number": 10001,
      "title": "Report 10001: Motorists have daylight sighting near Fort Liard.",
      "classification": "Class A",
      "timestamp": "1987-04-13T12:00:00Z",
      "latitude": 59.61,
      "longitude": -123.12
    },
    {
      "number": 10633,
      "title": "Report 10633: Daylight sighting by hikers in the Checakmus area",
      "classification": "Class A",
      "timestamp": "2005-02-15T12:00:00Z",
      "latitude": 49.94374,
      "longitude": -123.2054
    },
    {
      "number": 10878,
      "title": "Report 10878: Road crossing sighting outside Halfmoon Bay",
      "classification": "Class A",
      "timestamp": "2005-03-08T12:00:00Z",
      "latitude": 49.54,
      "longitude": -123.94
    },
    {
      "number": 11915,
      "title": "Report 11915: Night time sightings outside Duncan; Other incidents mentioned.",
      "classification": "Class A",
      "timestamp": "2005-06-17T12:00:00Z",
      "latitude": 49.51069,
      "longitude": -123.8562
    },
    {
      "number": 12451,
      "title": "Report 12451: Motorhome driver reports sighting around 7am near Jasper",
      "classification": "Class A",
      "timestamp": "2005-08-14T12:00:00Z",
      "latitude": 53.59444,
      "longitude": -120.4736
    },
    {
      "number": 13232,
      "title": "Report 13232: Daylight sighting near Prince George",
      "classification": "Class A",
      "timestamp": "1977-09-30T12:00:00Z",
      "latitude": 54.23708,
      "longitude": -122.0064
    },
    {
      "number": 13371,
      "title": "Report 13371: Early morning sighting by a trucker on Othello Road.",
      "classification": "Class A",
      "timestamp": "2005-09-10T12:00:00Z",
      "latitude": 49.62125,
      "longitude": -121.3976
    },
    {
      "number": 13464,
      "title": "Report 13464: BC family sees a possible family group of sasquatch",
      "classification": "Class A",
      "timestamp": "2006-01-02T12:00:00Z",
      "latitude": 49.09555,
      "longitude": -119.8664
    },
    {
      "number": 13642,
      "title": "Report 13642: Early morning sighting by 10 year old child in a backyard tent in the Lower Fraser Valley",
      "classification": "Class A",
      "timestamp": "1985-07-31T12:00:00Z",
      "latitude": 49.4068,
      "longitude": -122.1171
    },
    {
      "number": 14328,
      "title": "Report 14328: Old newspaper article (Lima, Ohio) about encounters near Harrison Mills",
      "classification": "Class A",
      "timestamp": "1934-03-04T12:00:00Z",
      "latitude": 49.175,
      "longitude": -121.525
    },
    {
      "number": 14329,
      "title": "Report 14329: Old newspaper article (Fresno Bee) Univ. Calif. students plan expedition to BC",
      "classification": "Class A",
      "timestamp": "2006-03-02T12:00:00Z",
      "latitude": 49.24,
      "longitude": -121.94
    },
    {
      "number": 14511,
      "title": "Report 14511: Sighting by snowmobilers outside Castlegar",
      "classification": "Class A",
      "timestamp": "1980-12-23T12:00:00Z",
      "latitude": 49.28569,
      "longitude": -117.8504
    },
    {
      "number": 15085,
      "title": "Report 15085: Morning road-crossing sighting by motorist near Revelstoke",
      "classification": "Class A",
      "timestamp": "1985-07-15T12:00:00Z",
      "latitude": 51.05747,
      "longitude": -118.398
    },
    {
      "number": 15274,
      "title": "Report 15274: Early morning sighting on Vancouver Island near Cowichan Lake",
      "classification": "Class A",
      "timestamp": "2006-06-20T12:00:00Z",
      "latitude": 48.83319,
      "longitude": -124.2872
    },
    {
      "number": 17331,
      "title": "Report 17331: Possible sighting at a farm outside Victoria (Vancouver Island)",
      "classification": "Class A",
      "timestamp": "2006-11-15T12:00:00Z",
      "latitude": 48.56704,
      "longitude": -123.6171
    },
    {
      "number": 18534,
      "title": "Report 18534: Daylight sighting by motorist on Hwy 4 near Kennedy Lake",
      "classification": "Class A",
      "timestamp": "2007-03-30T12:00:00Z",
      "latitude": 49.26528,
      "longitude": -125.3675
    },
    {
      "number": 20415,
      "title": "Report 20415: Man describes his childhood observation in daylight on a farm outside Langley",
      "classification": "Class A",
      "timestamp": "1988-05-15T12:00:00Z",
      "latitude": 49.0922,
      "longitude": -122.6089
    },
    {
      "number": 21563,
      "title": "Report 21563: Childhood Sighting Near a House in the Okanagan",
      "classification": "Class A",
      "timestamp": "1974-07-15T12:00:00Z",
      "latitude": 49.73385,
      "longitude": -119.8076
    },
    {
      "number": 23245,
      "title": "Report 23245: Resting elk hunter smells and sees a sasquatch near Whiteswan Lake",
      "classification": "Class A",
      "timestamp": "2007-09-25T12:00:00Z",
      "latitude": 50.29765,
      "longitude": -115.5743
    },
    {
      "number": 24564,
      "title": "Report 24564: Woman recalls multiple witness daylight sighting on Shawnigan Lake",
      "classification": "Class A",
      "timestamp": "2008-10-02T12:00:00Z",
      "latitude": 48.35765,
      "longitude": -123.3647
    },
    {
      "number": 24806,
      "title": "Report 24806: Motorists recount incident on the side of a highway near the BC-Alberta border",
      "classification": "Class A",
      "timestamp": "1978-08-15T12:00:00Z",
      "latitude": 50.58304,
      "longitude": -118.188
    },
    {
      "number": 26050,
      "title": "Report 26050: Memory told of an inquisitive sasquatch sighted near Port Hardy",
      "classification": "Class A",
      "timestamp": "1992-10-15T12:00:00Z",
      "latitude": 50.8604,
      "longitude": -127.735
    },
    {
      "number": 26765,
      "title": "Report 26765: Man recalls seeing a sasquatch near Little Qualicum Falls on Vancouver Island",
      "classification": "Class A",
      "timestamp": "1987-08-15T12:00:00Z",
      "latitude": 49.4085,
      "longitude": -124.6929
    },
    {
      "number": 28740,
      "title": "Report 28740: Man recollects multiple encounters from 1970 to present near Kootenay, Chadsey & Davis Lakes",
      "classification": "Class A",
      "timestamp": "1993-07-30T12:00:00Z",
      "latitude": 49.41289,
      "longitude": -116.5133
    },
    {
      "number": 34822,
      "title": "Report 34822: Memory told of a nighttime sighting while traveling on a mountainside near Rossland",
      "classification": "Class A",
      "timestamp": "1969-09-15T12:00:00Z",
      "latitude": 49.20805,
      "longitude": -117.9636
    },
    {
      "number": 2404,
      "title": "Report 2404: Girl celebrating her birthday has encounter with upright animal walking through yard",
      "classification": "Class A",
      "timestamp": "2005-03-14T12:00:00Z",
      "latitude": 50.25,
      "longitude": -98.03333
    },
    {
      "number": 8576,
      "title": "Report 8576: Man recalls seeing a sasquatch in the early evening near Great Falls",
      "classification": "Class A",
      "timestamp": "1976-09-15T12:00:00Z",
      "latitude": 50.5697,
      "longitude": -96.17149
    },
    {
      "number": 12335,
      "title": "Report 12335: Daylight sighitng by motorist on Hwy 6 near Easterville",
      "classification": "Class A",
      "timestamp": "1990-09-24T12:00:00Z",
      "latitude": 52.9884,
      "longitude": -99.11815
    },
    {
      "number": 12908,
      "title": "Report 12908: Daylight sighting by ferry operator at Nelson River crossing, north of Norway House.",
      "classification": "Class A",
      "timestamp": "2005-04-16T12:00:00Z",
      "latitude": 54.245,
      "longitude": -97.595
    },
    {
      "number": 21795,
      "title": "Report 21795: Childhood incidents in Manitoba",
      "classification": "Class A",
      "timestamp": "1965-07-15T12:00:00Z",
      "latitude": 50.91725,
      "longitude": -100.9129
    },
    {
      "number": 35177,
      "title": "Report 35177: Tall manlike creature seen while on a family outing near The Pas",
      "classification": "Class A",
      "timestamp": "2007-05-19T12:00:00Z",
      "latitude": 53.99,
      "longitude": -101.274
    },
    {
      "number": 15343,
      "title": "Report 15343: Daytime sighting by motorist close to Maine/New Brunswick border",
      "classification": "Class A",
      "timestamp": "2002-07-28T12:00:00Z",
      "latitude": 45.6746,
      "longitude": -67.05334
    },
    {
      "number": 17221,
      "title": "Report 17221: Motorists Observe Creature Along Trans-Canada Highway",
      "classification": "Class A",
      "timestamp": "2006-06-06T12:00:00Z",
      "latitude": 45.98335,
      "longitude": -64.4627
    },
    {
      "number": 1615,
      "title": "Report 1615: Motorists have nighttime sighting near Grimsby.",
      "classification": "Class A",
      "timestamp": "1978-08-19T12:00:00Z",
      "latitude": 43.2114,
      "longitude": -79.5985
    },
    {
      "number": 5873,
      "title": "Report 5873: Man describes childhood sighting at a cabin in Ufford County",
      "classification": "Class A",
      "timestamp": "2007-02-10T12:00:00Z",
      "latitude": 45.01904,
      "longitude": -79.1338
    },
    {
      "number": 9516,
      "title": "Report 9516: Woman recalls childhood sighting outside a cottage in the Southern Georgian Bay area.",
      "classification": "Class A",
      "timestamp": "2007-01-29T12:00:00Z",
      "latitude": 44.86073,
      "longitude": -79.76308
    },
    {
      "number": 10611,
      "title": "Report 10611: Night time sighting by policeman on the Trans-Canada Hwy, ~100 miles west of Cochrane.",
      "classification": "Class A",
      "timestamp": "2007-01-29T12:00:00Z",
      "latitude": 49.16669,
      "longitude": -81.00553
    },
    {
      "number": 13267,
      "title": "Report 13267: Morning encounter with a moose hunter in northern Ontario",
      "classification": "Class A",
      "timestamp": "1990-10-27T12:00:00Z",
      "latitude": 51.03445,
      "longitude": -93.88194
    },
    {
      "number": 13627,
      "title": "Report 13627: Pre-dawn road crossing sighting by trucker 40 miles west of Toronto",
      "classification": "Class A",
      "timestamp": "2007-01-17T12:00:00Z",
      "latitude": 43.62427,
      "longitude": -80.60942
    },
    {
      "number": 16807,
      "title": "Report 16807: Afternoon sighting by couple on Highway 11 outside Latchford",
      "classification": "Class A",
      "timestamp": "2007-01-12T12:00:00Z",
      "latitude": 48.03027,
      "longitude": -79.94618
    },
    {
      "number": 16853,
      "title": "Report 16853: Roadside sighting by a father and son north of Brockville",
      "classification": "Class A",
      "timestamp": "2007-01-27T12:00:00Z",
      "latitude": 44.53995,
      "longitude": -75.63184
    },
    {
      "number": 18077,
      "title": "Report 18077: Morning daylight encounter with grouse hunter on Indian Island 45 km east of Fort Francis",
      "classification": "Class A",
      "timestamp": "2007-03-05T12:00:00Z",
      "latitude": 48.36266,
      "longitude": -92.04907
    },
    {
      "number": 20408,
      "title": "Report 20408: Daylight sighting close to tourist cabins near Sioux Narrows",
      "classification": "Class A",
      "timestamp": "2007-07-22T12:00:00Z",
      "latitude": 49.40276,
      "longitude": -94.02934
    },
    {
      "number": 22821,
      "title": "Report 22821: Daylight sighting by emergency services worker driving on Hwy 11 just outside Fort Frances",
      "classification": "Class A",
      "timestamp": "2007-08-31T12:00:00Z",
      "latitude": 48.60385,
      "longitude": -93.47855
    },
    {
      "number": 23134,
      "title": "Report 23134: Fishing Guide has sighting while trolling Deer Lake",
      "classification": "Class A",
      "timestamp": "1986-07-05T12:00:00Z",
      "latitude": 52.6752,
      "longitude": -94.5176
    },
    {
      "number": 23171,
      "title": "Report 23171: Forest Growth and Yield Tech has strange encounter while working in forest",
      "classification": "Class A",
      "timestamp": "2006-09-01T12:00:00Z",
      "latitude": 48.51035,
      "longitude": -79.81129
    },
    {
      "number": 24733,
      "title": "Report 24733: Daytime sighting behind a cabin near Westport",
      "classification": "Class A",
      "timestamp": "2008-08-15T12:00:00Z",
      "latitude": 44.61615,
      "longitude": -76.4198
    },
    {
      "number": 25857,
      "title": "Report 25857: Nightime roadside encounter near Orangeville",
      "classification": "Class A",
      "timestamp": "1990-05-04T12:00:00Z",
      "latitude": 44.15255,
      "longitude": -80.02915
    },
    {
      "number": 31992,
      "title": "Report 31992: Man recalls his nighttime roadside sighting near Markdale",
      "classification": "Class A",
      "timestamp": "1964-06-15T12:00:00Z",
      "latitude": 44.30352,
      "longitude": -80.66389
    },
    {
      "number": 13061,
      "title": "Report 13061: Man recalls his daylight sighting as a young fisherman on the Yukon River",
      "classification": "Class A",
      "timestamp": "1978-08-01T12:00:00Z",
      "latitude": 60.36933,
      "longitude": -134.4837
    },
    {
      "number": 16779,
      "title": "Report 16779: Man recalls close encounter while on afternoon walk near Whitehorse",
      "classification": "Class A",
      "timestamp": "2009-03-31T12:00:00Z",
      "latitude": 60.69976,
      "longitude": -135.1155
    },
    {
      "number": 348,
      "title": "Report 348: Teen and uncle chase reddish bigfoot in San Isabel National Forest",
      "classification": "Class A",
      "timestamp": "2000-08-20T12:00:00Z",
      "latitude": 37.57915,
      "longitude": -105.4979
    },
    {
      "number": 408,
      "title": "Report 408: Daylight sighting by hikers in the Loveland Pass area (Cont. Div.)",
      "classification": "Class A",
      "timestamp": "2000-08-26T12:00:00Z",
      "latitude": 39.67095,
      "longitude": -105.8199
    },
    {
      "number": 470,
      "title": "Report 470: Late night sighting by backpacker near Crater Lake",
      "classification": "Class A",
      "timestamp": "2000-08-23T12:00:00Z",
      "latitude": 39.1084,
      "longitude": -107.0153
    },
    {
      "number": 513,
      "title": "Report 513: Future doctor sees giant tracks high in Rawah wilderness",
      "classification": "Class A",
      "timestamp": "1971-07-15T12:00:00Z",
      "latitude": 40.79166,
      "longitude": -105.9583
    },
    {
      "number": 819,
      "title": "Report 819: Sightings by hunting guide in Pike National Forest",
      "classification": "Class A",
      "timestamp": "1999-09-11T12:00:00Z",
      "latitude": 38.8922,
      "longitude": -105.1058
    },
    {
      "number": 880,
      "title": "Report 880: Rockhound startled to find he's being observed",
      "classification": "Class A",
      "timestamp": "1998-09-28T12:00:00Z",
      "latitude": 39.21338,
      "longitude": -105.0652
    },
    {
      "number": 1075,
      "title": "Report 1075: Teens fire at big black thing peeking in window of home",
      "classification": "Class A",
      "timestamp": "1977-05-01T12:00:00Z",
      "latitude": 38.49833,
      "longitude": -107.8833
    },
    {
      "number": 1351,
      "title": "Report 1351: Various sightings by campers and ranchers along Lake Fork, a tributary of the Conejos River.",
      "classification": "Class A",
      "timestamp": "1994-06-01T12:00:00Z",
      "latitude": 37.30833,
      "longitude": -106.4917
    },
    {
      "number": 1352,
      "title": "Report 1352: Daylight sighting by hikers near Lake Fork, off the Conejos River.",
      "classification": "Class A",
      "timestamp": "1997-07-13T12:00:00Z",
      "latitude": 37.32255,
      "longitude": -106.5123
    },
    {
      "number": 1354,
      "title": "Report 1354: Sighting by a motorist",
      "classification": "Class A",
      "timestamp": "1997-09-02T12:00:00Z",
      "latitude": 39.42923,
      "longitude": -104.9677
    },
    {
      "number": 1355,
      "title": "Report 1355: BFRO Investigator, Keith Foster's evaluation of tracks found on the south shore of the Eagle River. App. 1 mile east of the town of Eagle.",
      "classification": "Class A",
      "timestamp": "2000-03-21T12:00:00Z",
      "latitude": 39.6632,
      "longitude": -106.8085
    },
    {
      "number": 1359,
      "title": "Report 1359: Multi-witness account of an observation of a strange creature on a ridge",
      "classification": "Class A",
      "timestamp": "1997-11-01T12:00:00Z",
      "latitude": 38.8993,
      "longitude": -104.9743
    },
    {
      "number": 1361,
      "title": "Report 1361: Twenty-two inch tracks found",
      "classification": "Class A",
      "timestamp": "1998-04-14T12:00:00Z",
      "latitude": 38.54166,
      "longitude": -104.9908
    },
    {
      "number": 1363,
      "title": "Report 1363: strange loud howls heard by retired wildlife biologist on a camping trip.",
      "classification": "Class A",
      "timestamp": "1994-10-23T12:00:00Z",
      "latitude": 39.18975,
      "longitude": -106.4269
    },
    {
      "number": 1366,
      "title": "Report 1366: huge human-like handprint found on top of a vandalized sign.",
      "classification": "Class A",
      "timestamp": "1975-07-20T12:00:00Z",
      "latitude": 39.26944,
      "longitude": -106.3833
    },
    {
      "number": 1367,
      "title": "Report 1367: Creature was observed chasing deer.",
      "classification": "Class A",
      "timestamp": "1990-08-10T12:00:00Z",
      "latitude": 40.57499,
      "longitude": -105.3646
    },
    {
      "number": 1368,
      "title": "Report 1368: witness saw man-like creature covered with dark red hair while hiking in the extreme eastern part of Dinosaur National Monument.",
      "classification": "Class A",
      "timestamp": "1991-07-02T12:00:00Z",
      "latitude": 40.45418,
      "longitude": -108.5417
    },
    {
      "number": 1374,
      "title": "Report 1374: Creature observed running on hind legs",
      "classification": "Class A",
      "timestamp": "1998-07-25T12:00:00Z",
      "latitude": 37.75417,
      "longitude": -107.7667
    },
    {
      "number": 1376,
      "title": "Report 1376: Man sees large creature while working the late shift at a mine.",
      "classification": "Class A",
      "timestamp": "1981-01-15T12:00:00Z",
      "latitude": 38.753,
      "longitude": -105.1598
    },
    {
      "number": 1760,
      "title": "Report 1760: Bowhunter sees large figure near Cameron Pass",
      "classification": "Class A",
      "timestamp": "1996-09-20T12:00:00Z",
      "latitude": 40.54167,
      "longitude": -105.9333
    },
    {
      "number": 2667,
      "title": "Report 2667: Couple sees \"power-walking\" biped in forest above Leadville",
      "classification": "Class A",
      "timestamp": "1995-06-15T12:00:00Z",
      "latitude": 39.24998,
      "longitude": -106.2583
    },
    {
      "number": 3086,
      "title": "Report 3086: Large creature leaves 12\"+ handprints on camper trailer during rainy night",
      "classification": "Class A",
      "timestamp": "2001-09-08T12:00:00Z",
      "latitude": 37.4625,
      "longitude": -108.2083
    },
    {
      "number": 3185,
      "title": "Report 3185: Co-workers stunned by giant hairy \"man-thing\" walking down town street",
      "classification": "Class A",
      "timestamp": "1987-10-26T12:00:00Z",
      "latitude": 38.4,
      "longitude": -105.1167
    },
    {
      "number": 3506,
      "title": "Report 3506: Trucker has nighttime roadside sighting south of Colorado Springs near Ft. Carson",
      "classification": "Class A",
      "timestamp": "1999-12-15T12:00:00Z",
      "latitude": 38.6691,
      "longitude": -104.8604
    },
    {
      "number": 3606,
      "title": "Report 3606: Campers have daylight sighting near Leadville",
      "classification": "Class A",
      "timestamp": "1971-09-15T12:00:00Z",
      "latitude": 39.25,
      "longitude": -106.3
    },
    {
      "number": 3652,
      "title": "Report 3652: Driver has daylight sighting off CO 91 between Copper Mtn. and Leadville",
      "classification": "Class A",
      "timestamp": "1998-09-19T12:00:00Z",
      "latitude": 39.32385,
      "longitude": -106.2275
    },
    {
      "number": 3653,
      "title": "Report 3653: Daytime sighting by hiker, off West Sopris Creek Road",
      "classification": "Class A",
      "timestamp": "2001-02-20T12:00:00Z",
      "latitude": 39.3375,
      "longitude": -107.0671
    },
    {
      "number": 3664,
      "title": "Report 3664: Daytime sighting on the edge of Lost Lake, near the Continental Divide",
      "classification": "Class A",
      "timestamp": "1996-06-26T12:00:00Z",
      "latitude": 40.4521,
      "longitude": -106.6535
    },
    {
      "number": 3710,
      "title": "Report 3710: Daytime sighting by Pike's Peak tourist",
      "classification": "Class A",
      "timestamp": "2001-06-30T12:00:00Z",
      "latitude": 38.9006,
      "longitude": -104.9917
    },
    {
      "number": 4614,
      "title": "Report 4614: Hikers observe animal in early evening near Blanca Peak",
      "classification": "Class A",
      "timestamp": "1994-05-15T12:00:00Z",
      "latitude": 37.5969,
      "longitude": -105.4826
    },
    {
      "number": 5493,
      "title": "Report 5493: Young camper has early morning encounter.",
      "classification": "Class A",
      "timestamp": "2005-03-19T12:00:00Z",
      "latitude": 39.11636,
      "longitude": -105.2155
    },
    {
      "number": 5586,
      "title": "Report 5586: Large creature crosses road in 1 1/2 strides",
      "classification": "Class A",
      "timestamp": "2003-04-11T12:00:00Z",
      "latitude": 37.025,
      "longitude": -106.8583
    },
    {
      "number": 5608,
      "title": "Report 5608: Young student has early morning sighting.",
      "classification": "Class A",
      "timestamp": "2005-04-12T12:00:00Z",
      "latitude": 37.09263,
      "longitude": -104.3786
    },
    {
      "number": 6782,
      "title": "Report 6782: Hunters observe dark creature pounding rocks together",
      "classification": "Class A",
      "timestamp": "2003-09-04T12:00:00Z",
      "latitude": 38.59998,
      "longitude": -106.6417
    },
    {
      "number": 6785,
      "title": "Report 6785: Startled hiker sees tall shaggy biped on trail near Leadville",
      "classification": "Class A",
      "timestamp": "2002-05-29T12:00:00Z",
      "latitude": 39.0917,
      "longitude": -106.4417
    },
    {
      "number": 7036,
      "title": "Report 7036: Elk hunter trailed by large biped in twilight, finds tracks the next day",
      "classification": "Class A",
      "timestamp": "2003-09-17T12:00:00Z",
      "latitude": 39.45824,
      "longitude": -106.625
    },
    {
      "number": 7225,
      "title": "Report 7225: Picnicker has daytime sighting outside Buffalo Creek",
      "classification": "Class A",
      "timestamp": "2005-02-04T12:00:00Z",
      "latitude": 39.31667,
      "longitude": -105.3542
    },
    {
      "number": 7827,
      "title": "Report 7827: Two hunters recount late morning sighting near Hotchkiss",
      "classification": "Class A",
      "timestamp": "1994-09-15T12:00:00Z",
      "latitude": 38.875,
      "longitude": -107.7084
    },
    {
      "number": 10533,
      "title": "Report 10533: Hikers have daylight sighting west of Pikes Peak",
      "classification": "Class A",
      "timestamp": "1977-07-04T12:00:00Z",
      "latitude": 38.826,
      "longitude": -105.1146
    },
    {
      "number": 13411,
      "title": "Report 13411: Man recalls a nighttime sighting while viewing the city lights in Chataqua Park",
      "classification": "Class A",
      "timestamp": "1995-11-01T12:00:00Z",
      "latitude": 40.00817,
      "longitude": -105.298
    },
    {
      "number": 13441,
      "title": "Report 13441: Woman describes night time sighting during childhood in the Pike National Forest",
      "classification": "Class A",
      "timestamp": "1979-06-13T12:00:00Z",
      "latitude": 39.0465,
      "longitude": -105.2146
    },
    {
      "number": 14243,
      "title": "Report 14243: Dusk sighting by charter bus driver on Hwy 160 near Mancos",
      "classification": "Class A",
      "timestamp": "2004-10-15T12:00:00Z",
      "latitude": 37.33925,
      "longitude": -108.3364
    },
    {
      "number": 14503,
      "title": "Report 14503: Night time sighting by a youth leader at a bible camp near Grand Junction",
      "classification": "Class A",
      "timestamp": "1999-05-15T12:00:00Z",
      "latitude": 39.16305,
      "longitude": -107.9514
    },
    {
      "number": 14814,
      "title": "Report 14814: Father and son nighttime roadside sighting in the Wet Mountains southwest of Pueblo",
      "classification": "Class A",
      "timestamp": "1998-07-25T12:00:00Z",
      "latitude": 38.0654,
      "longitude": -105.1137
    },
    {
      "number": 15273,
      "title": "Report 15273: Young picnicker sees strange creature on rocky ledge above the St. Vrain River",
      "classification": "Class A",
      "timestamp": "1964-08-01T12:00:00Z",
      "latitude": 40.17585,
      "longitude": -105.3792
    },
    {
      "number": 15278,
      "title": "Report 15278: Mid-morning sighting by soldier hunting west of Fort Carson",
      "classification": "Class A",
      "timestamp": "2006-05-15T12:00:00Z",
      "latitude": 38.5859,
      "longitude": -104.9426
    },
    {
      "number": 15588,
      "title": "Report 15588: Daytime sighting of white creature near Dillon",
      "classification": "Class A",
      "timestamp": "1971-06-30T12:00:00Z",
      "latitude": 39.7198,
      "longitude": -106.1666
    },
    {
      "number": 15630,
      "title": "Report 15630: Miner reports pre-dawn road crossing near Silverton",
      "classification": "Class A",
      "timestamp": "1989-04-01T12:00:00Z",
      "latitude": 37.83905,
      "longitude": -107.7247
    },
    {
      "number": 17767,
      "title": "Report 17767: Night-time sighting by Marine training near Ft Carson",
      "classification": "Class A",
      "timestamp": "1986-07-17T12:00:00Z",
      "latitude": 38.716,
      "longitude": -104.875
    },
    {
      "number": 22801,
      "title": "Report 22801: Further apparent corroboration of multiple-witness, winter, nighttime, road-crossing near Kenosha Pass",
      "classification": "Class A",
      "timestamp": "2002-12-15T12:00:00Z",
      "latitude": 39.39565,
      "longitude": -105.7854
    },
    {
      "number": 26522,
      "title": "Report 26522: Woman describes vivid early morning sighting just below Independence Pass",
      "classification": "Class A",
      "timestamp": "2009-09-01T12:00:00Z",
      "latitude": 39.1006,
      "longitude": -106.5445
    },
    {
      "number": 26671,
      "title": "Report 26671: Two brothers witness an upright creature while at a cabin near Red Feather",
      "classification": "Class A",
      "timestamp": "2009-09-22T12:00:00Z",
      "latitude": 40.84707,
      "longitude": -105.6385
    },
    {
      "number": 27057,
      "title": "Report 27057: Former Deputy Sheriff describes morning sighting on Cornwall Mountain",
      "classification": "Class A",
      "timestamp": "2009-06-10T12:00:00Z",
      "latitude": 37.37285,
      "longitude": -106.496
    },
    {
      "number": 31939,
      "title": "Report 31939: Motorist describes early morning sighting near Buena Vista",
      "classification": "Class A",
      "timestamp": "2010-08-15T12:00:00Z",
      "latitude": 38.83714,
      "longitude": -106.199
    },
    {
      "number": 32905,
      "title": "Report 32905: Hiker has a possible daytime sighting near Crater Lake",
      "classification": "Class A",
      "timestamp": "2008-06-30T12:00:00Z",
      "latitude": 37.70338,
      "longitude": -107.7015
    },
    {
      "number": 35596,
      "title": "Report 35596: Early evening sighting by two women hiking in Bailey",
      "classification": "Class A",
      "timestamp": "2012-05-29T12:00:00Z",
      "latitude": 39.40589,
      "longitude": -105.475
    },
    {
      "number": 39520,
      "title": "Report 39520: Motorists see tall, hairy human-like figure wading across the Colorado River east of Glenwood Springs",
      "classification": "Class A",
      "timestamp": "2013-01-17T12:00:00Z",
      "latitude": 39.37357,
      "longitude": -107.0596
    },
    {
      "number": 42602,
      "title": "Report 42602: Backpackers hear growls, knocking and observe two large, hairy bipeds at Surprise Lake",
      "classification": "Class A",
      "timestamp": "2012-06-13T12:00:00Z",
      "latitude": 39.80777,
      "longitude": -106.3023
    },
    {
      "number": 45666,
      "title": "Report 45666: Two friends witness daytime road crossing near Conifer",
      "classification": "Class A",
      "timestamp": "2014-03-02T12:00:00Z",
      "latitude": 39.35503,
      "longitude": -105.2527
    },
    {
      "number": 16408,
      "title": "Report 16408: Children observe bipedal animal walking along railroad tracks near the Housatonic River",
      "classification": "Class A",
      "timestamp": "1953-08-01T12:00:00Z",
      "latitude": 41.36935,
      "longitude": -73.1512
    },
    {
      "number": 48732,
      "title": "Report 48732:  Large hairy biped seen chasing deer behind a home at dusk near Bridgewater",
      "classification": "Class A",
      "timestamp": "2016-05-19T12:00:00Z",
      "latitude": 41.49472,
      "longitude": -73.36136
    },
    {
      "number": 115,
      "title": "Report 115: Young girls have daylight sighting near their home",
      "classification": "Class A",
      "timestamp": "1976-08-15T12:00:00Z",
      "latitude": 30.98555,
      "longitude": -85.6489
    },
    {
      "number": 246,
      "title": "Report 246: Daylight sighting by hunter near FL / GA border",
      "classification": "Class A",
      "timestamp": "1994-12-18T12:00:00Z",
      "latitude": 30.6645,
      "longitude": -84.60745
    },
    {
      "number": 414,
      "title": "Report 414: Year long sightings by family",
      "classification": "Class A",
      "timestamp": "1974-07-15T12:00:00Z",
      "latitude": 26.5931,
      "longitude": -80.21295
    },
    {
      "number": 445,
      "title": "Report 445: Boy Scouts have sighting while camping at Quednau Ranch",
      "classification": "Class A",
      "timestamp": "1962-08-15T12:00:00Z",
      "latitude": 27.0047,
      "longitude": -82.0332
    },
    {
      "number": 446,
      "title": "Report 446: Security Guards have sighting while on duty near Jacksonville",
      "classification": "Class A",
      "timestamp": "2000-09-22T12:00:00Z",
      "latitude": 30.2333,
      "longitude": -81.52915
    },
    {
      "number": 591,
      "title": "Report 591: Driver stops car momentarily on Nova Rd., witnesses a 7-8 foot tall dark creature approach his car..",
      "classification": "Class A",
      "timestamp": "1989-09-15T12:00:00Z",
      "latitude": 28.3725,
      "longitude": -80.8595
    },
    {
      "number": 592,
      "title": "Report 592: Two witnesses observed a large, black-brown human-like form  between Wiles Rd. and Sample Rd",
      "classification": "Class A",
      "timestamp": "1975-01-15T12:00:00Z",
      "latitude": 26.27395,
      "longitude": -80.1937
    },
    {
      "number": 594,
      "title": "Report 594: a sighting by a group of boys along a canal, a mile or so north of South New River.",
      "classification": "Class A",
      "timestamp": "1980-07-15T12:00:00Z",
      "latitude": 26.08285,
      "longitude": -80.21025
    },
    {
      "number": 606,
      "title": "Report 606: witness observed creature running across the road",
      "classification": "Class A",
      "timestamp": "1986-08-15T12:00:00Z",
      "latitude": 30.05705,
      "longitude": -81.75165
    },
    {
      "number": 607,
      "title": "Report 607: while hunting hogs near a cypress bayhead, witness saw a dark brown/black bi-pedal creature.",
      "classification": "Class A",
      "timestamp": "1983-11-19T12:00:00Z",
      "latitude": 26.15915,
      "longitude": -81.76041
    },
    {
      "number": 720,
      "title": "Report 720: Hunter reports finding strange tracks in the Everglades, near the area of the Dade County and Collier County line, between Big Cypress and Alligator Alley.",
      "classification": "Class A",
      "timestamp": "1993-11-20T12:00:00Z",
      "latitude": 26.06885,
      "longitude": -80.8368
    },
    {
      "number": 721,
      "title": "Report 721: Series of reports (6) concerning the Skunk Ape.  Photos of the creature and footcasts",
      "classification": "Class A",
      "timestamp": "1997-07-17T12:00:00Z",
      "latitude": 25.91695,
      "longitude": -81.29691
    },
    {
      "number": 722,
      "title": "Report 722: Five or Six foot tall ape looking creature observed picking up road kill.",
      "classification": "Class A",
      "timestamp": "1998-02-09T12:00:00Z",
      "latitude": 29.6699,
      "longitude": -82.98365
    },
    {
      "number": 723,
      "title": "Report 723: creature sitting on a wood pile seen watching witness.",
      "classification": "Class A",
      "timestamp": "1969-06-15T12:00:00Z",
      "latitude": 28.50665,
      "longitude": -82.50591
    },
    {
      "number": 724,
      "title": "Report 724: Upright creature seen by 3 men fishing in a boat 3 miles from Greenwood",
      "classification": "Class A",
      "timestamp": "1990-08-15T12:00:00Z",
      "latitude": 30.8724,
      "longitude": -85.217
    },
    {
      "number": 725,
      "title": "Report 725: Large tracks found investigated by Federal authorities",
      "classification": "Class A",
      "timestamp": "1980-07-02T12:00:00Z",
      "latitude": 29.10635,
      "longitude": -81.62275
    },